I (125389) TELEMETRY: =================================================
I (125399) TELEMETRY: ============== REGISTRO GPS REAL ===============
I (125399) TELEMETRY: Fix valido: SIM
I (125409) TELEMETRY: UTC: 191128.000
I (125409) TELEMETRY: Latitude: -21.540316
I (125409) TELEMETRY: Longitude: -49.841210
I (125419) TELEMETRY: Velocidade: 0.00 km/h
I (125419) TELEMETRY: Altitude: 407.90 m
I (125419) TELEMETRY: Satelites: 11
I (125429) TELEMETRY: Qualidade do fix: 1
I (125429) TELEMETRY: HDOP: 0.90
I (125429) TELEMETRY: Pontos validos recebidos: 125
I (125439) TELEMETRY: =================================================
I (125469) GPS_APP: NMEA: $GNRMC,191128.000,A,2132.41894,S,04950.47260,W,0.00,67.38,280626,,,A*42
I (125479) GPS_APP: NMEA: $GNVTG,67.38,T,,M,0.00,N,0.00,K,A*19
I (127389) GPS_APP: NMEA: $GNGGA,191130.000,2132.41892,S,04950.47261,W,1,11,0.9,407.9,M,0.0,M,,*7F
I (127469) GPS_APP: NMEA: $GNRMC,191130.000,A,2132.41892,S,04950.47261,W,0.00,67.38,280626,,,A*4C
I (127479) GPS_APP: NMEA: $GNVTG,67.38,T,,M,0.00,N,0.00,K,A*19
I (129389) GPS_APP: NMEA: $GNGGA,191132.000,2132.41889,S,04950.47261,W,1,11,0.9,407.9,M,0.0,M,,*77
I (129469) GPS_APP: NMEA: $GNRMC,191132.000,A,2132.41889,S,04950.47261,W,0.00,67.38,280626,,,A*44
I (129479) GPS_APP: NMEA: $GNVTG,67.38,T,,M,0.00,N,0.00,K,A*19
I (131399) GPS_APP: NMEA: $GNGGA,191134.000,2132.41881,S,04950.47289,W,1,11,0.9,406.3,M,0.0,M,,*74
I (131399) TELEMETRY: =================================================
I (131399) TELEMETRY: ============== REGISTRO GPS REAL ===============
I (131409) TELEMETRY: Fix valido: SIM
I (131409) TELEMETRY: UTC: 191134.000
I (131419) TELEMETRY: Latitude: -21.540314
I (131419) TELEMETRY: Longitude: -49.841215
I (131419) TELEMETRY: Velocidade: 0.00 km/h
I (131429) TELEMETRY: Altitude: 406.30 m
I (131429) TELEMETRY: Satelites: 11
I (131429) TELEMETRY: Qualidade do fix: 1
I (131439) TELEMETRY: HDOP: 0.90
I (131439) TELEMETRY: Pontos validos recebidos: 131
I (131449) TELEMETRY: =================================================
I (131479) GPS_APP: NMEA: $GNRMC,191134.000,A,2132.41881,S,04950.47289,W,0.48,67.38,280626,,,A*40
I (131489) GPS_APP: NMEA: $GNVTG,67.38,T,,M,0.48,N,0.88,K,A*15
I (133389) GPS_APP: NMEA: $GNGGA,191136.000,2132.41870,S,04950.47297,W,1,11,0.9,406.5,M,0.0,M,,*71
I (133469) GPS_APP: NMEA: $GNRMC,191136.000,A,2132.41870,S,04950.47297,W,0.00,67.38,280626,,,A*4F
I (133479) GPS_APP: NMEA: $GNVTG,67.38,T,,M,0.00,N,0.00,K,A*19
I (135389) GPS_APP: NMEA: $GNGGA,191138.000,2132.41862,S,04950.47302,W,1,11,0.9,406.5,M,0.0,M,,*71
I (135469) GPS_APP: NMEA: $GNRMC,191138.000,A,2132.41862,S,04950.47302,W,0.00,67.38,280626,,,A*4F
I (135479) GPS_APP: NMEA: $GNVTG,67.38,T,,M,0.00,N,0.00,K,A*19
I (137389) GPS_APP: NMEA: $GNGGA,191140.000,2132.41856,S,04950.47302,W,1,11,0.9,406.5,M,0.0,M,,*79
I (137389) TELEMETRY: =================================================
I (137389) TELEMETRY: ============== REGISTRO GPS REAL ===============
I (137399) TELEMETRY: Fix valido: SIM
I (137399) TELEMETRY: UTC: 191140.000
I (137409) TELEMETRY: Latitude: -21.540309
I (137409) TELEMETRY: Longitude: -49.841217
I (137409) TELEMETRY: Velocidade: 0.00 km/h
I (137419) TELEMETRY: Altitude: 406.50 m
I (137419) TELEMETRY: Satelites: 11
I (137419) TELEMETRY: Qualidade do fix: 1
I (137429) TELEMETRY: HDOP: 0.90
I (137429) TELEMETRY: Pontos validos recebidos: 137
I (137439) TELEMETRY: =================================================
I (137469) GPS_APP: NMEA: $GNRMC,191140.000,A,2132.41856,S,04950.47302,W,0.00,67.38,280626,,,A*47
I (137479) GPS_APP: NMEA: $GNVTG,67.38,T,,M,0.00,N,0.00,K,A*19
I (139389) GPS_APP: NMEA: $GNGGA,191142.000,2132.41853,S,04950.47304,W,1,11,0.9,406.5,M,0.0,M,,*78
I (139469) GPS_APP: NMEA: $GNRMC,191142.000,A,2132.41853,S,04950.47304,W,0.00,67.38,280626,,,A*46
I (139479) GPS_APP: NMEA: $GNVTG,67.38,T,,M,0.00,N,0.00,K,A*19
I (141389) GPS_APP: NMEA: $GNGGA,191144.000,2132.41850,S,04950.47310,W,1,11,0.9,406.5,M,0.0,M,,*78
I (141469) GPS_APP: NMEA: $GNRMC,191144.000,A,2132.41850,S,04950.47310,W,0.00,67.38,280626,,,A*46
I (141479) GPS_APP: NMEA: $GNVTG,67.38,T,,M,0.00,N,0.00,K,A*19
I (143389) GPS_APP: NMEA: $GNGGA,191146.000,2132.41848,S,04950.47308,W,1,11,0.9,406.5,M,0.0,M,,*7A
I (143389) TELEMETRY: =================================================
I (143389) TELEMETRY: ============== REGISTRO GPS REAL ===============
I (143399) TELEMETRY: Fix valido: SIM
I (143399) TELEMETRY: UTC: 191146.000
I (143409) TELEMETRY: Latitude: -21.540308
I (143409) TELEMETRY: Longitude: -49.841218
I (143419) TELEMETRY: Velocidade: 0.00 km/h
I (143419) TELEMETRY: Altitude: 406.50 m
I (143419) TELEMETRY: Satelites: 11
I (143429) TELEMETRY: Qualidade do fix: 1
I (143429) TELEMETRY: HDOP: 0.90
I (143429) TELEMETRY: Pontos validos recebidos: 143
I (143439) TELEMETRY: =================================================
I (143469) GPS_APP: NMEA: $GNRMC,191146.000,A,2132.41848,S,04950.47308,W,0.00,67.38,280626,,,A*44
I (143479) GPS_APP: NMEA: $GNVTG,67.38,T,,M,0.00,N,0.00,K,A*19
I (145389) GPS_APP: NMEA: $GNGGA,191148.000,2132.41850,S,04950.47308,W,1,11,0.9,406.5,M,0.0,M,,*7D
I (145469) GPS_APP: NMEA: $GNRMC,191148.000,A,2132.41850,S,04950.47308,W,0.00,67.38,280626,,,A*43
I (145479) GPS_APP: NMEA: $GNVTG,67.38,T,,M,0.00,N,0.00,K,A*19
I (147389) GPS_APP: NMEA: $GNGGA,191150.000,2132.41846,S,04950.47310,W,1,11,0.9,406.5,M,0.0,M,,*7A
I (147469) GPS_APP: NMEA: $GNRMC,191150.000,A,2132.41846,S,04950.47310,W,0.00,67.38,280626,,,A*44
I (147479) GPS_APP: NMEA: $GNVTG,67.38,T,,M,0.00,N,0.00,K,A*19
I (149389) GPS_APP: NMEA: $GNGGA,191152.000,2132.41841,S,04950.47311,W,1,11,0.9,406.5,M,0.0,M,,*7E
